[
{"name":"Aberdeen", "id": "2657832", "tz":"Europe/London", "lat":"57.14369", "lon":"-2.09814", "now":[0,0], "w1":[0,0], "w2":[0,0], "w3":[0,0]},
{"name":"Amsterdam", "id": "2759794", "tz":"Europe/Amsterdam", "lat":"52.37403", "lon":"4.88969", "now":[0,0], "w1":[0,0], "w2":[0,0], "w3":[0,0]},
{"name":"Ankara", "id": "323786", "tz":"Europe/Istanbul", "lat":"39.91987", "lon":"32.85427", "now":[0,0], "w1":[0,0], "w2":[0,0], "w3":[0,0]},
{"name":"Athens", "id": "264371", "tz":"Europe/Athens", "lat":"37.98376", "lon":"23.72784", "now":[0,0], "w1":[0,0], "w2":[0,0], "w3":[0,0]},
{"name":"Barcelona", "id": "3128760", "tz":"Europe/Madrid", "lat":"41.38879", "lon":"2.15899", "now":[0,0], "w1":[0,0], "w2":[0,0], "w3":[0,0]},
{"name":"Bari", "id": "3182351", "tz":"Europe/Rome", "lat":"41.12066", "lon":"16.86982", "now":[0,0], "w1":[0,0], "w2":[0,0], "w3":[0,0]},
{"name":"Belfast", "id": "2655984", "tz":"Europe/London", "lat":"54.59682", "lon":"-5.92541", "now":[0,0], "w1":[0,0], "w2":[0,0], "w3":[0,0]},
{"name":"Belgrade", "id": "792680", "tz":"Europe/Belgrade", "lat":"44.80401", "lon":"20.46513", "now":[0,0], "w1":[0,0], "w2":[0,0], "w3":[0,0]},
{"name":"Berlin", "id": "2950159", "tz":"Europe/Berlin", "lat":"52.52437", "lon":"13.41053", "now":[0,0], "w1":[0,0], "w2":[0,0], "w3":[0,0]},
{"name":"Bordeaux", "id": "3031582", "tz":"Europe/Paris", "lat":"44.84044", "lon":"-0.5805", "now":[0,0], "w1":[0,0], "w2":[0,0], "w3":[0,0]},
{"name":"Brussels", "id": "2800866", "tz":"Europe/Brussels", "lat":"50.85045", "lon":"4.34878", "now":[0,0], "w1":[0,0], "w2":[0,0], "w3":[0,0]},
{"name":"Bucharest", "id": "683506", "tz":"Europe/Bucharest", "lat":"44.43225", "lon":"26.10626", "now":[0,0], "w1":[0,0], "w2":[0,0], "w3":[0,0]},
{"name":"Budapest", "id": "3054643", "tz":"Europe/Budapest", "lat":"47.49835", "lon":"19.04045", "now":[0,0], "w1":[0,0], "w2":[0,0], "w3":[0,0]},
{"name":"Copenhagen", "id": "2618425", "tz":"Europe/Copenhagen", "lat":"55.67594", "lon":"12.56553", "now":[0,0], "w1":[0,0], "w2":[0,0], "w3":[0,0]},
{"name":"Cork", "id": "2965140", "tz":"Europe/Dublin", "lat":"51.89797", "lon":"-8.47061", "now":[0,0], "w1":[0,0], "w2":[0,0], "w3":[0,0]},
{"name":"Cluj-Napoca", "id": "681290", "tz":"Europe/Bucharest", "lat":"46.76667", "lon":"23.6", "now":[0,0], "w1":[0,0], "w2":[0,0], "w3":[0,0]},
{"name":"Dublin", "id": "2964574", "tz":"Europe/Dublin", "lat":"53.33306", "lon":"-6.24889", "now":[0,0], "w1":[0,0], "w2":[0,0], "w3":[0,0]},
{"name":"Donetsk", "id": "709717", "tz":"Europe/Kiev", "lat":"48.023", "lon":"37.80224", "now":[0,0], "w1":[0,0], "w2":[0,0], "w3":[0,0]},
{"name":"Edinburgh", "id": "2650225", "tz":"Europe/London", "lat":"55.95206", "lon":"-3.19648", "now":[0,0], "w1":[0,0], "w2":[0,0], "w3":[0,0]},
{"name":"Gdansk", "id": "3099434", "tz":"Europe/Warsaw", "lat":"54.35227", "lon":"18.64912", "now":[0,0], "w1":[0,0], "w2":[0,0], "w3":[0,0]},
{"name":"Hamburg", "id": "2911298", "tz":"Europe/Berlin", "lat":"53.55073", "lon":"9.99302", "now":[0,0], "w1":[0,0], "w2":[0,0], "w3":[0,0]},
{"name":"Helsinki", "id": "658225", "tz":"Europe/Helsinki", "lat":"60.16952", "lon":"24.93545", "now":[0,0], "w1":[0,0], "w2":[0,0], "w3":[0,0]},
{"name":"Katowice", "id": "3096472", "tz":"Europe/Warsaw", "lat":"50.25841", "lon":"19.02754", "now":[0,0], "w1":[0,0], "w2":[0,0], "w3":[0,0]},
{"name":"Koeln", "id": "2886242", "tz":"Europe/Berlin", "lat":"50.93333", "lon":"6.95", "now":[0,0], "w1":[0,0], "w2":[0,0], "w3":[0,0]},
{"name":"Kyiv", "id": "703448", "tz":"Europe/Kiev", "lat":"50.45466", "lon":"30.5238", "now":[0,0], "w1":[0,0], "w2":[0,0], "w3":[0,0]},
{"name":"Krasnodar", "id": "542420", "tz":"Europe/Moscow", "lat":"45.04484", "lon":"38.97603", "now":[0,0], "w1":[0,0], "w2":[0,0], "w3":[0,0]},
{"name":"Lisbon", "id": "2267057", "tz":"Europe/Lisbon", "lat":"38.71667", "lon":"-9.13333", "now":[0,0], "w1":[0,0], "w2":[0,0], "w3":[0,0]},
{"name":"London", "id": "2643743", "tz":"Europe/London", "lat":"51.50853", "lon":"-0.12574", "now":[0,0], "w1":[0,0], "w2":[0,0], "w3":[0,0]},
{"name":"Lviv", "id": "702550", "tz":"Europe/Kiev", "lat":"49.83826", "lon":"24.02324", "now":[0,0], "w1":[0,0], "w2":[0,0], "w3":[0,0]},
{"name":"Madrid", "id": "3117735", "tz":"Europe/Madrid", "lat":"40.4165", "lon":"-3.70256", "now":[0,0], "w1":[0,0], "w2":[0,0], "w3":[0,0]},
{"name":"Manchester", "id": "2643123", "tz":"Europe/London", "lat":"53.48095", "lon":"-2.23743", "now":[0,0], "w1":[0,0], "w2":[0,0], "w3":[0,0]},
{"name":"Milan", "id": "3173435", "tz":"Europe/Rome", "lat":"45.46427", "lon":"9.18951", "now":[0,0], "w1":[0,0], "w2":[0,0], "w3":[0,0]},
{"name":"Minsk", "id": "625144", "tz":"Europe/Minsk", "lat":"53.9", "lon":"27.56667", "now":[0,0], "w1":[0,0], "w2":[0,0], "w3":[0,0]},
{"name":"Moscow", "id": "524901", "tz":"Europe/Moscow", "lat":"55.75222", "lon":"37.61556", "now":[0,0], "w1":[0,0], "w2":[0,0], "w3":[0,0]},
{"name":"Munich", "id": "2867714", "tz":"Europe/Berlin", "lat":"48.13743", "lon":"11.57549", "now":[0,0], "w1":[0,0], "w2":[0,0], "w3":[0,0]},
{"name":"Nice", "id": "2990440", "tz":"Europe/Paris", "lat":"43.70313", "lon":"7.26608", "now":[0,0], "w1":[0,0], "w2":[0,0], "w3":[0,0]},
{"name":"Nizhniy Novgorod", "id": "520555", "tz":"Europe/Moscow", "lat":"56.32867", "lon":"44.00205", "now":[0,0], "w1":[0,0], "w2":[0,0], "w3":[0,0]},
{"name":"Odessa", "id": "698740", "tz":"Europe/Kiev", "lat":"46.48572", "lon":"30.74383", "now":[0,0], "w1":[0,0], "w2":[0,0], "w3":[0,0]},
{"name":"Oslo", "id": "3143244", "tz":"Europe/Oslo", "lat":"59.91273", "lon":"10.74609", "now":[0,0], "w1":[0,0], "w2":[0,0], "w3":[0,0]},
{"name":"Palermo", "id": "2523920", "tz":"Europe/Rome", "lat":"38.13205", "lon":"13.33561", "now":[0,0], "w1":[0,0], "w2":[0,0], "w3":[0,0]},
{"name":"Paris", "id": "2968815", "tz":"Europe/Paris", "lat":"48.85341", "lon":"2.3488", "now":[0,0], "w1":[0,0], "w2":[0,0], "w3":[0,0]},
{"name":"Perm", "id": "511196", "tz":"Asia/Yekaterinburg", "lat":"58.01046", "lon":"56.25017", "now":[0,0], "w1":[0,0], "w2":[0,0], "w3":[0,0]},
{"name":"Plymouth", "id": "2640194", "tz":"Europe/London", "lat":"50.37153", "lon":"-4.14305", "now":[0,0], "w1":[0,0], "w2":[0,0], "w3":[0,0]},
{"name":"Poznan", "id": "3088171", "tz":"Europe/Warsaw", "lat":"52.40692", "lon":"16.92993", "now":[0,0], "w1":[0,0], "w2":[0,0], "w3":[0,0]},
{"name":"Prague", "id": "3067696", "tz":"Europe/Prague", "lat":"50.08804", "lon":"14.42076", "now":[0,0], "w1":[0,0], "w2":[0,0], "w3":[0,0]},
{"name":"Reykjavik", "id": "3413829", "tz":"Atlantic/Reykjavik", "lat":"64.13548", "lon":"-21.89541", "now":[0,0], "w1":[0,0], "w2":[0,0], "w3":[0,0]},
{"name":"Rome", "id": "3169070", "tz":"Europe/Rome", "lat":"41.89193", "lon":"12.51133", "now":[0,0], "w1":[0,0], "w2":[0,0], "w3":[0,0]},
{"name":"Riga", "id": "456172", "tz":"Europe/Riga", "lat":"56.946", "lon":"24.10589", "now":[0,0], "w1":[0,0], "w2":[0,0], "w3":[0,0]},
{"name":"Saint Petersburg", "id": "498817", "tz":"Europe/Moscow", "lat":"59.93863", "lon":"30.31413", "now":[0,0], "w1":[0,0], "w2":[0,0], "w3":[0,0]},
{"name":"Samara", "id": "499099", "tz":"Europe/Samara", "lat":"53.20007", "lon":"50.15", "now":[0,0], "w1":[0,0], "w2":[0,0], "w3":[0,0]},
{"name":"Sofia", "id": "727011", "tz":"Europe/Sofia", "lat":"42.69751", "lon":"23.32415", "now":[0,0], "w1":[0,0], "w2":[0,0], "w3":[0,0]},
{"name":"Stockholm", "id": "2673730", "tz":"Europe/Stockholm", "lat":"59.32938", "lon":"18.06871", "now":[0,0], "w1":[0,0], "w2":[0,0], "w3":[0,0]},
{"name":"Tirana", "id": "3183875", "tz":"Europe/Tirane", "lat":"41.3275", "lon":"19.81889", "now":[0,0], "w1":[0,0], "w2":[0,0], "w3":[0,0]},
{"name":"Trondheim", "id": "3133880", "tz":"Europe/Oslo", "lat":"63.43049", "lon":"10.39506", "now":[0,0], "w1":[0,0], "w2":[0,0], "w3":[0,0]},
{"name":"Venice", "id": "3164603", "tz":"Europe/Rome", "lat":"45.43713", "lon":"12.33265", "now":[0,0], "w1":[0,0], "w2":[0,0], "w3":[0,0]},
{"name":"Vienna", "id": "2761369", "tz":"Europe/Vienna", "lat":"48.20849", "lon":"16.37208", "now":[0,0], "w1":[0,0], "w2":[0,0], "w3":[0,0]},
{"name":"Volgograd", "id": "472757", "tz":"Europe/Volgograd", "lat":"48.71939", "lon":"44.50183", "now":[0,0], "w1":[0,0], "w2":[0,0], "w3":[0,0]},
{"name":"Voronezh", "id": "472045", "tz":"Europe/Moscow", "lat":"51.67204", "lon":"39.1843", "now":[0,0], "w1":[0,0], "w2":[0,0], "w3":[0,0]},
{"name":"Warsaw", "id": "756135", "tz":"Europe/Warsaw", "lat":"52.22977", "lon":"21.01178", "now":[0,0], "w1":[0,0], "w2":[0,0], "w3":[0,0]},
{"name":"Vilnius", "id": "593116", "tz":"Europe/Vilnius", "lat":"54.68916", "lon":"25.2798", "now":[0,0], "w1":[0,0], "w2":[0,0], "w3":[0,0]},
{"name":"Zagreb", "id": "3186886", "tz":"Europe/Zagreb", "lat":"45.81444", "lon":"15.97798", "now":[0,0], "w1":[0,0], "w2":[0,0], "w3":[0,0]},
{"name":"Zurich", "id": "2657896", "tz":"Europe/Zurich", "lat":"47.36667", "lon":"8.55", "now":[0,0], "w1":[0,0], "w2":[0,0], "w3":[0,0]},
{"name":"Adelaide", "id": "2078025", "tz":"Australia/Adelaide", "lat":"-34.92866", "lon":"138.59863", "now":[0,0], "w1":[0,0], "w2":[0,0], "w3":[0,0]},
{"name":"Auckland", "id": "2193733", "tz":"Pacific/Auckland", "lat":"-36.84853", "lon":"174.76349", "now":[0,0], "w1":[0,0], "w2":[0,0], "w3":[0,0]},
{"name":"Ashgabat", "id": "162183", "tz":"Asia/Ashgabat", "lat":"37.95", "lon":"58.38333", "now":[0,0], "w1":[0,0], "w2":[0,0], "w3":[0,0]},
{"name":"Bangkok", "id": "1609350", "tz":"Asia/Bangkok", "lat":"13.75398", "lon":"100.50144", "now":[0,0], "w1":[0,0], "w2":[0,0], "w3":[0,0]},
{"name":"Beijing", "id": "1816670", "tz":"Asia/Shanghai", "lat":"39.9075", "lon":"116.39723", "now":[0,0], "w1":[0,0], "w2":[0,0], "w3":[0,0]},
{"name":"Brisbane", "id": "2174003", "tz":"Australia/Brisbane", "lat":"-27.46794", "lon":"153.02809", "now":[0,0], "w1":[0,0], "w2":[0,0], "w3":[0,0]},
{"name":"Chennai", "id": "1264527", "tz":"Asia/Kolkata", "lat":"13.08784", "lon":"80.27847", "now":[0,0], "w1":[0,0], "w2":[0,0], "w3":[0,0]},
{"name":"Chongqing", "id": "1814906", "tz":"Asia/Shanghai", "lat":"29.56278", "lon":"106.55278", "now":[0,0], "w1":[0,0], "w2":[0,0], "w3":[0,0]},
{"name":"Colombo", "id": "1248991", "tz":"Asia/Colombo", "lat":"6.93548", "lon":"79.84868", "now":[0,0], "w1":[0,0], "w2":[0,0], "w3":[0,0]},
{"name":"Darwin", "id": "2073124", "tz":"Australia/Darwin", "lat":"-12.46113", "lon":"130.84185", "now":[0,0], "w1":[0,0], "w2":[0,0], "w3":[0,0]},
{"name":"Davao", "id": "1715348", "tz":"Asia/Manila", "lat":"7.07306", "lon":"125.61278", "now":[0,0], "w1":[0,0], "w2":[0,0], "w3":[0,0]},
{"name":"Harbin", "id": "2037013", "tz":"Asia/Shanghai", "lat":"45.75", "lon":"126.65", "now":[0,0], "w1":[0,0], "w2":[0,0], "w3":[0,0]},
{"name":"Hong Kong", "id": "1819729", "tz":"Asia/Hong_Kong", "lat":"22.27832", "lon":"114.17469", "now":[0,0], "w1":[0,0], "w2":[0,0], "w3":[0,0]},
{"name":"Jakarta", "id": "1642911", "tz":"Asia/Jakarta", "lat":"-6.21462", "lon":"106.84513", "now":[0,0], "w1":[0,0], "w2":[0,0], "w3":[0,0]},
{"name":"Kuala Lumpur", "id": "1735161", "tz":"Asia/Kuala_Lumpur", "lat":"4.0412", "lon":"101.68653", "now":[0,0], "w1":[0,0], "w2":[0,0], "w3":[0,0]},
{"name":"Makassar", "id": "1622786", "tz":"Asia/Makassar", "lat":"-5.14861", "lon":"119.43194", "now":[0,0], "w1":[0,0], "w2":[0,0], "w3":[0,0]},
{"name":"Manila", "id": "1701668", "tz":"Asia/Manila", "lat":"14.6042", "lon":"120.9822", "now":[0,0], "w1":[0,0], "w2":[0,0], "w3":[0,0]},
{"name":"Melbourne", "id": "2158177", "tz":"Australia/Melbourne", "lat":"-37.814", "lon":"144.96332", "now":[0,0], "w1":[0,0], "w2":[0,0], "w3":[0,0]},
{"name":"Mumbai", "id": "1275339", "tz":"Asia/Kolkata", "lat":"19.07283", "lon":"72.88261", "now":[0,0], "w1":[0,0], "w2":[0,0], "w3":[0,0]},
{"name":"Nanjing", "id": "1799962", "tz":"Asia/Shanghai", "lat":"32.06167", "lon":"118.77778", "now":[0,0], "w1":[0,0], "w2":[0,0], "w3":[0,0]},
{"name":"Nagpur", "id": "1262180", "tz":"Asia/Kolkata", "lat":"21.14631", "lon":"79.08491", "now":[0,0], "w1":[0,0], "w2":[0,0], "w3":[0,0]},
{"name":"New Delhi", "id": "1261481", "tz":"Asia/Kolkata", "lat":"28.63576", "lon":"77.22445", "now":[0,0], "w1":[0,0], "w2":[0,0], "w3":[0,0]},
{"name":"Osaka", "id": "1853909", "tz":"Asia/Tokyo", "lat":"34.69374", "lon":"135.50218", "now":[0,0], "w1":[0,0], "w2":[0,0], "w3":[0,0]},
{"name":"Perth", "id": "2063523", "tz":"Australia/Perth", "lat":"-31.95224", "lon":"115.8614", "now":[0,0], "w1":[0,0], "w2":[0,0], "w3":[0,0]},
{"name":"Port Moresby", "id": "2088122", "tz":"Pacific/Port_Moresby", "lat":"-9.47723", "lon":"147.15089", "now":[0,0], "w1":[0,0], "w2":[0,0], "w3":[0,0]},
{"name":"Pyongyang", "id": "1871859", "tz":"Asia/Pyongyang", "lat":"39.03385", "lon":"125.75432", "now":[0,0], "w1":[0,0], "w2":[0,0], "w3":[0,0]},
{"name":"Sapporo", "id": "2128295", "tz":"Asia/Tokyo", "lat":"43.06667", "lon":"141.35", "now":[0,0], "w1":[0,0], "w2":[0,0], "w3":[0,0]},
{"name":"Shanghai", "id": "1796236", "tz":"Asia/Shanghai", "lat":"31.22222", "lon":"121.45806", "now":[0,0], "w1":[0,0], "w2":[0,0], "w3":[0,0]},
{"name":"Shenyang", "id": "2034937", "tz":"Asia/Shanghai", "lat":"41.79222", "lon":"123.43278", "now":[0,0], "w1":[0,0], "w2":[0,0], "w3":[0,0]},
{"name":"Shiraz", "id": "115019", "tz":"Asia/Tehran", "lat":"29.61031", "lon":"52.53113", "now":[0,0], "w1":[0,0], "w2":[0,0], "w3":[0,0]},
{"name":"Singapore", "id": "1880252", "tz":"Asia/Singapore", "lat":"0.08967", "lon":"103.85007", "now":[0,0], "w1":[0,0], "w2":[0,0], "w3":[0,0]},
{"name":"Sydney", "id": "2147714", "tz":"Australia/Sydney", "lat":"-33.86785", "lon":"151.20732", "now":[0,0], "w1":[0,0], "w2":[0,0], "w3":[0,0]},
{"name":"Tokyo", "id": "1850147", "tz":"Asia/Tokyo", "lat":"35.6895", "lon":"139.69171", "now":[0,0], "w1":[0,0], "w2":[0,0], "w3":[0,0]},
{"name":"Wellington", "id": "2179537", "tz":"Pacific/Auckland", "lat":"-41.28664", "lon":"174.77557", "now":[0,0], "w1":[0,0], "w2":[0,0], "w3":[0,0]},
{"name":"Wuhan", "id": "1791247", "tz":"Asia/Shanghai", "lat":"30.58333", "lon":"114.26667", "now":[0,0], "w1":[0,0], "w2":[0,0], "w3":[0,0]},
{"name":"Irkutsk", "id": "2023469", "tz":"Asia/Irkutsk", "lat":"52.29778", "lon":"104.29639", "now":[0,0], "w1":[0,0], "w2":[0,0], "w3":[0,0]},
{"name":"Vladivostok", "id": "2013348", "tz":"Asia/Vladivostok", "lat":"43.10562", "lon":"131.87353", "now":[0,0], "w1":[0,0], "w2":[0,0], "w3":[0,0]},
{"name":"Xi'an", "id": "1790630", "tz":"Asia/Shanghai", "lat":"34.25833", "lon":"108.92861", "now":[0,0], "w1":[0,0], "w2":[0,0], "w3":[0,0]},
{"name":"Zahedan", "id": "1159301", "tz":"Asia/Tehran", "lat":"29.4963", "lon":"60.8629", "now":[0,0], "w1":[0,0], "w2":[0,0], "w3":[0,0]},
{"name":"Mecca", "id": "104515", "tz":"Asia/Riyadh", "lat":"21.42664", "lon":"39.82563", "now":[0,0], "w1":[0,0], "w2":[0,0], "w3":[0,0]},
{"name":"Abuja", "id": "2352778", "tz":"Africa/Lagos", "lat":"9.05785", "lon":"7.49508", "now":[0,0], "w1":[0,0], "w2":[0,0], "w3":[0,0]},
{"name":"Agadez", "id": "2448085", "tz":"Africa/Niamey", "lat":"16.97333", "lon":"7.99111", "now":[0,0], "w1":[0,0], "w2":[0,0], "w3":[0,0]},
{"name":"Algiers", "id": "2507480", "tz":"Africa/Algiers", "lat":"36.73225", "lon":"3.08746", "now":[0,0], "w1":[0,0], "w2":[0,0], "w3":[0,0]},
{"name":"Antananarivo", "id": "1070940", "tz":"Indian/Antananarivo", "lat":"-18.91368", "lon":"47.53613", "now":[0,0], "w1":[0,0], "w2":[0,0], "w3":[0,0]},
{"name":"Bamako", "id": "2460596", "tz":"Africa/Bamako", "lat":"12.65", "lon":"-8", "now":[0,0], "w1":[0,0], "w2":[0,0], "w3":[0,0]},
{"name":"Bangui", "id": "2389853", "tz":"Africa/Bangui", "lat":"4.36122", "lon":"18.55496", "now":[0,0], "w1":[0,0], "w2":[0,0], "w3":[0,0]},
{"name":"Cairo", "id": "360630", "tz":"Africa/Cairo", "lat":"30.06263", "lon":"31.24967", "now":[0,0], "w1":[0,0], "w2":[0,0], "w3":[0,0]},
{"name":"Cape Town", "id": "3369157", "tz":"Africa/Johannesburg", "lat":"-33.92584", "lon":"18.42322", "now":[0,0], "w1":[0,0], "w2":[0,0], "w3":[0,0]},
{"name":"Dakar", "id": "2253354", "tz":"Africa/Dakar", "lat":"14.6937", "lon":"-17.44406", "now":[0,0], "w1":[0,0], "w2":[0,0], "w3":[0,0]},
{"name":"Djibouti", "id": "223817", "tz":"Africa/Djibouti", "lat":"11.58901", "lon":"43.14503", "now":[0,0], "w1":[0,0], "w2":[0,0], "w3":[0,0]},
{"name":"Durban", "id": "1007311", "tz":"Africa/Johannesburg", "lat":"-29.8579", "lon":"31.0292", "now":[0,0], "w1":[0,0], "w2":[0,0], "w3":[0,0]},
{"name":"Gaborone", "id": "933773", "tz":"Africa/Gaborone", "lat":"-24.65451", "lon":"25.90859", "now":[0,0], "w1":[0,0], "w2":[0,0], "w3":[0,0]},
{"name":"Harare", "id": "890299", "tz":"Africa/Harare", "lat":"-17.82772", "lon":"31.05337", "now":[0,0], "w1":[0,0], "w2":[0,0], "w3":[0,0]},
{"name":"Johannesburg", "id": "993800", "tz":"Africa/Johannesburg", "lat":"-26.20227", "lon":"28.04363", "now":[0,0], "w1":[0,0], "w2":[0,0], "w3":[0,0]},
{"name":"Juba", "id": "373303", "tz":"Africa/Juba", "lat":"4.85165", "lon":"31.58247", "now":[0,0], "w1":[0,0], "w2":[0,0], "w3":[0,0]},
{"name":"Kano", "id": "2335204", "tz":"Africa/Lagos", "lat":"12.00012", "lon":"8.51672", "now":[0,0], "w1":[0,0], "w2":[0,0], "w3":[0,0]},
{"name":"Kampala", "id": "232422", "tz":"Africa/Kampala", "lat":"0.31628", "lon":"32.58219", "now":[0,0], "w1":[0,0], "w2":[0,0], "w3":[0,0]},
{"name":"Kinshasa", "id": "2314302", "tz":"Africa/Kinshasa", "lat":"-4.32758", "lon":"15.31357", "now":[0,0], "w1":[0,0], "w2":[0,0], "w3":[0,0]},
{"name":"Libreville", "id": "2399697", "tz":"Africa/Libreville", "lat":"0.39241", "lon":"9.45356", "now":[0,0], "w1":[0,0], "w2":[0,0], "w3":[0,0]},
{"name":"Lilongwe", "id": "927967", "tz":"Africa/Blantyre", "lat":"-13.96692", "lon":"33.78725", "now":[0,0], "w1":[0,0], "w2":[0,0], "w3":[0,0]},
{"name":"Livingstone", "id": "910111", "tz":"Africa/Lusaka", "lat":"-17.84194", "lon":"25.85425", "now":[0,0], "w1":[0,0], "w2":[0,0], "w3":[0,0]},
{"name":"Luanda", "id": "2240449", "tz":"Africa/Luanda", "lat":"-8.83682", "lon":"13.23432", "now":[0,0], "w1":[0,0], "w2":[0,0], "w3":[0,0]},
{"name":"Lusaka", "id": "909137", "tz":"Africa/Lusaka", "lat":"-15.40669", "lon":"28.28713", "now":[0,0], "w1":[0,0], "w2":[0,0], "w3":[0,0]},
{"name":"Luxor", "id": "360502", "tz":"Africa/Cairo", "lat":"25.69893", "lon":"32.6421", "now":[0,0], "w1":[0,0], "w2":[0,0], "w3":[0,0]},
{"name":"Maputo", "id": "1040652", "tz":"Africa/Maputo", "lat":"-25.76553", "lon":"32.58322", "now":[0,0], "w1":[0,0], "w2":[0,0], "w3":[0,0]},
{"name":"Mbuji-Mayi", "id": "209228", "tz":"Africa/Lubumbashi", "lat":"-6.13603", "lon":"23.58979", "now":[0,0], "w1":[0,0], "w2":[0,0], "w3":[0,0]},
{"name":"Mogadishu", "id": "53654", "tz":"Africa/Mogadishu", "lat":"2.03711", "lon":"45.34375", "now":[0,0], "w1":[0,0], "w2":[0,0], "w3":[0,0]},
{"name":"Nairobi", "id": "184745", "tz":"Africa/Nairobi", "lat":"-1.28333", "lon":"36.81667", "now":[0,0], "w1":[0,0], "w2":[0,0], "w3":[0,0]},
{"name":"N'Djamena", "id": "2427123", "tz":"Africa/Ndjamena", "lat":"12.10672", "lon":"15.0444", "now":[0,0], "w1":[0,0], "w2":[0,0], "w3":[0,0]},
{"name":"Niamey", "id": "2440485", "tz":"Africa/Niamey", "lat":"13.51366", "lon":"2.1098", "now":[0,0], "w1":[0,0], "w2":[0,0], "w3":[0,0]},
{"name":"Tripoli", "id": "2210247", "tz":"Africa/Tripoli", "lat":"32.88743", "lon":"13.18733", "now":[0,0], "w1":[0,0], "w2":[0,0], "w3":[0,0]},
{"name":"Tunis", "id": "2464470", "tz":"Africa/Tunis", "lat":"36.81897", "lon":"10.16579", "now":[0,0], "w1":[0,0], "w2":[0,0], "w3":[0,0]},
{"name":"Windhoek", "id": "3352136", "tz":"Africa/Windhoek", "lat":"-22.55941", "lon":"17.08323", "now":[0,0], "w1":[0,0], "w2":[0,0], "w3":[0,0]},
{"name":"Asuncion", "id": "3439389", "tz":"America/Asuncion", "lat":"-25.28646", "lon":"-57.647", "now":[0,0], "w1":[0,0], "w2":[0,0], "w3":[0,0]},
{"name":"Belem", "id": "3405870", "tz":"America/Belem", "lat":"-1.45583", "lon":"-48.50444", "now":[0,0], "w1":[0,0], "w2":[0,0], "w3":[0,0]},
{"name":"Bogota", "id": "3688689", "tz":"America/Bogota", "lat":"4.60971", "lon":"-74.08175", "now":[0,0], "w1":[0,0], "w2":[0,0], "w3":[0,0]},
{"name":"Buenos Aires", "id": "3435910", "tz":"America/Argentina/Buenos_Aires", "lat":"-34.61315", "lon":"-58.37723", "now":[0,0], "w1":[0,0], "w2":[0,0], "w3":[0,0]},
{"name":"Brasilia", "id": "3469058", "tz":"America/Sao_Paulo", "lat":"-15.77972", "lon":"-47.92972", "now":[0,0], "w1":[0,0], "w2":[0,0], "w3":[0,0]},
{"name":"Caracas", "id": "3646738", "tz":"America/Caracas", "lat":"10.48801", "lon":"-66.87919", "now":[0,0], "w1":[0,0], "w2":[0,0], "w3":[0,0]},
{"name":"Cordoba", "id": "3860259", "tz":"America/Argentina/Cordoba", "lat":"-31.4135", "lon":"-64.18105", "now":[0,0], "w1":[0,0], "w2":[0,0], "w3":[0,0]},
{"name":"Georgetown", "id": "3378644", "tz":"America/Guyana", "lat":"6.80448", "lon":"-58.15527", "now":[0,0], "w1":[0,0], "w2":[0,0], "w3":[0,0]},
{"name":"Guayaquil", "id": "3657509", "tz":"America/Guayaquil", "lat":"-2.19616", "lon":"-79.88621", "now":[0,0], "w1":[0,0], "w2":[0,0], "w3":[0,0]},
{"name":"Iquique", "id": "3887127", "tz":"America/Santiago", "lat":"-20.21326", "lon":"-70.15027", "now":[0,0], "w1":[0,0], "w2":[0,0], "w3":[0,0]},
{"name":"La Paz", "id": "3911925", "tz":"America/La_Paz", "lat":"-16.5", "lon":"-68.15", "now":[0,0], "w1":[0,0], "w2":[0,0], "w3":[0,0]},
{"name":"Lima", "id": "3936456", "tz":"America/Lima", "lat":"-12.04318", "lon":"-77.02824", "now":[0,0], "w1":[0,0], "w2":[0,0], "w3":[0,0]},
{"name":"Manaus", "id": "3663517", "tz":"America/Manaus", "lat":"-3.10194", "lon":"-60.025", "now":[0,0], "w1":[0,0], "w2":[0,0], "w3":[0,0]},
{"name":"Paramaribo", "id": "3383330", "tz":"America/Paramaribo", "lat":"5.86638", "lon":"-55.16682", "now":[0,0], "w1":[0,0], "w2":[0,0], "w3":[0,0]},
{"name":"Porto Alegre", "id": "3452925", "tz":"America/Sao_Paulo", "lat":"-30.03283", "lon":"-51.23019", "now":[0,0], "w1":[0,0], "w2":[0,0], "w3":[0,0]},
{"name":"Rio de Janeiro", "id": "3451190", "tz":"America/Sao_Paulo", "lat":"-22.90642", "lon":"-43.18223", "now":[0,0], "w1":[0,0], "w2":[0,0], "w3":[0,0]},
{"name":"Salvador", "id": "3450554", "tz":"America/Bahia", "lat":"-12.97111", "lon":"-38.51083", "now":[0,0], "w1":[0,0], "w2":[0,0], "w3":[0,0]},
{"name":"Santiago", "id": "3871336", "tz":"America/Santiago", "lat":"-33.45694", "lon":"-70.64827", "now":[0,0], "w1":[0,0], "w2":[0,0], "w3":[0,0]},
{"name":"Santa Cruz de la Sierra", "id": "3904906", "tz":"America/La_Paz", "lat":"-17.78629", "lon":"-63.18117", "now":[0,0], "w1":[0,0], "w2":[0,0], "w3":[0,0]},
{"name":"Sao Paulo", "id": "3448439", "tz":"America/Sao_Paulo", "lat":"-23.5475", "lon":"-46.63611", "now":[0,0], "w1":[0,0], "w2":[0,0], "w3":[0,0]},
{"name":"Panama", "id": "3703443", "tz":"America/Panama", "lat":"8.9936", "lon":"-79.51973", "now":[0,0], "w1":[0,0], "w2":[0,0], "w3":[0,0]},
{"name":"Guatemala City", "id": "3598132", "tz":"America/Guatemala", "lat":"14.64072", "lon":"-90.51327", "now":[0,0], "w1":[0,0], "w2":[0,0], "w3":[0,0]},
{"name":"Kingston", "id": "3489854", "tz":"America/Jamaica", "lat":"17.99702", "lon":"-76.79358", "now":[0,0], "w1":[0,0], "w2":[0,0], "w3":[0,0]},
{"name":"San Jose", "id": "3621849", "tz":"America/Costa_Rica", "lat":"9.93333", "lon":"-84.08333", "now":[0,0], "w1":[0,0], "w2":[0,0], "w3":[0,0]},
{"name":"Taipei", "id": "1668341", "tz":"Asia/Taipei", "lat":"25.04776", "lon":"121.53185", "now":[0,0], "w1":[0,0], "w2":[0,0], "w3":[0,0]},
{"name":"Seoul", "id": "1835848", "tz":"Asia/Seoul", "lat":"37.566", "lon":"126.9784", "now":[0,0], "w1":[0,0], "w2":[0,0], "w3":[0,0]},
{"name":"Busan", "id": "1838524", "tz":"Asia/Seoul", "lat":"35.10168", "lon":"129.03004", "now":[0,0], "w1":[0,0], "w2":[0,0], "w3":[0,0]},
{"name":"Ho Chi Minh City", "id": "1566083", "tz":"Asia/Ho_Chi_Minh", "lat":"10.82302", "lon":"106.62965", "now":[0,0], "w1":[0,0], "w2":[0,0], "w3":[0,0]},
{"name":"Hanoi", "id": "1581130", "tz":"Asia/Bangkok", "lat":"21.0245", "lon":"105.84117", "now":[0,0], "w1":[0,0], "w2":[0,0], "w3":[0,0]},
{"name":"Atyrau", "id": "610529", "tz":"Asia/Atyrau", "lat":"47.11667", "lon":"51.88333", "now":[0,0], "w1":[0,0], "w2":[0,0], "w3":[0,0]},
{"name":"Dhaka", "id": "1185241", "tz":"Asia/Dhaka", "lat":"23.7104", "lon":"90.40744", "now":[0,0], "w1":[0,0], "w2":[0,0], "w3":[0,0]},
{"name":"Karachi", "id": "1174872", "tz":"Asia/Karachi", "lat":"24.8608", "lon":"67.0104", "now":[0,0], "w1":[0,0], "w2":[0,0], "w3":[0,0]},
{"name":"Islamabad", "id": "1176615", "tz":"Asia/Karachi", "lat":"33.72148", "lon":"73.04329", "now":[0,0], "w1":[0,0], "w2":[0,0], "w3":[0,0]},
{"name":"Dubai", "id": "292223", "tz":"Asia/Dubai", "lat":"25.07725", "lon":"55.30927", "now":[0,0], "w1":[0,0], "w2":[0,0], "w3":[0,0]},
{"name":"Riyadh", "id": "108410", "tz":"Asia/Riyadh", "lat":"24.68773", "lon":"46.72185", "now":[0,0], "w1":[0,0], "w2":[0,0], "w3":[0,0]},
{"name":"Baghdad", "id": "98182", "tz":"Asia/Baghdad", "lat":"33.34058", "lon":"44.40088", "now":[0,0], "w1":[0,0], "w2":[0,0], "w3":[0,0]},
{"name":"Kabul", "id": "1138958", "tz":"Asia/Kabul", "lat":"34.52813", "lon":"69.17233", "now":[0,0], "w1":[0,0], "w2":[0,0], "w3":[0,0]},
{"name":"Tehran", "id": "112931", "tz":"Asia/Tehran", "lat":"35.69439", "lon":"51.42151", "now":[0,0], "w1":[0,0], "w2":[0,0], "w3":[0,0]},
{"name":"Tbilisi", "id": "611717", "tz":"Asia/Tbilisi", "lat":"41.69411", "lon":"44.83368", "now":[0,0], "w1":[0,0], "w2":[0,0], "w3":[0,0]},
{"name":"Baku", "id": "587084", "tz":"Asia/Baku", "lat":"40.37767", "lon":"49.89201", "now":[0,0], "w1":[0,0], "w2":[0,0], "w3":[0,0]},
{"name":"Beirut", "id": "276781", "tz":"Asia/Beirut", "lat":"33.89332", "lon":"35.50157", "now":[0,0], "w1":[0,0], "w2":[0,0], "w3":[0,0]},
{"name":"Jerusalem", "id": "281184", "tz":"Asia/Jerusalem", "lat":"31.76904", "lon":"35.21633", "now":[0,0], "w1":[0,0], "w2":[0,0], "w3":[0,0]},
{"name":"Muscat", "id": "287286", "tz":"Asia/Muscat", "lat":"23.58413", "lon":"58.40778", "now":[0,0], "w1":[0,0], "w2":[0,0], "w3":[0,0]},
{"name":"Tashkent", "id": "1512569", "tz":"Asia/Tashkent", "lat":"41.26465", "lon":"69.21627", "now":[0,0], "w1":[0,0], "w2":[0,0], "w3":[0,0]},
{"name":"Doha", "id": "290030", "tz":"Asia/Qatar", "lat":"25.28545", "lon":"51.53096", "now":[0,0], "w1":[0,0], "w2":[0,0], "w3":[0,0]},
{"name":"Lagos", "id": "2332459", "tz":"Africa/Lagos", "lat":"6.45407", "lon":"3.39467", "now":[0,0], "w1":[0,0], "w2":[0,0], "w3":[0,0]},
{"name":"Casablanca", "id": "2553604", "tz":"Africa/Casablanca", "lat":"33.58831", "lon":"-7.61138", "now":[0,0], "w1":[0,0], "w2":[0,0], "w3":[0,0]},
{"name":"Kinshasa", "id": "2314302", "tz":"Africa/Kinshasa", "lat":"-4.32758", "lon":"15.31357", "now":[0,0], "w1":[0,0], "w2":[0,0], "w3":[0,0]},
{"name":"Dar es Salaam", "id": "160263", "tz":"Africa/Dar_es_Salaam", "lat":"-6.82349", "lon":"39.26951", "now":[0,0], "w1":[0,0], "w2":[0,0], "w3":[0,0]},
{"name":"Abidjan", "id": "2293538", "tz":"Africa/Abidjan", "lat":"5.35444", "lon":"-4.00167", "now":[0,0], "w1":[0,0], "w2":[0,0], "w3":[0,0]},
{"name":"Khartoum", "id": "379252", "tz":"Africa/Khartoum", "lat":"15.55177", "lon":"32.53241", "now":[0,0], "w1":[0,0], "w2":[0,0], "w3":[0,0]},
{"name":"Dakar", "id": "2253354", "tz":"Africa/Dakar", "lat":"14.6937", "lon":"-17.44406", "now":[0,0], "w1":[0,0], "w2":[0,0], "w3":[0,0]},
{"name":"Addis Ababa", "id": "344979", "tz":"Africa/Addis_Ababa", "lat":"9.02497", "lon":"38.74689", "now":[0,0], "w1":[0,0], "w2":[0,0], "w3":[0,0]},
{"name":"Douala", "id": "2232593", "tz":"Africa/Douala", "lat":"4.04827", "lon":"9.70428", "now":[0,0], "w1":[0,0], "w2":[0,0], "w3":[0,0]},
{"name":"Accra", "id": "2306104", "tz":"Africa/Accra", "lat":"5.55602", "lon":"-0.1969", "now":[0,0], "w1":[0,0], "w2":[0,0], "w3":[0,0]},
{"name":"Toronto", "id": "6167865", "tz":"America/Toronto", "lat":"43.70011", "lon":"-79.4163", "now":[0,0], "w1":[0,0], "w2":[0,0], "w3":[0,0]},
{"name":"Vancouver", "id": "6173331", "tz":"America/Vancouver", "lat":"49.24966", "lon":"-123.11934", "now":[0,0], "w1":[0,0], "w2":[0,0], "w3":[0,0]},
{"name":"Montreal", "id": "6077243", "tz":"America/Toronto", "lat":"45.50884", "lon":"-73.58781", "now":[0,0], "w1":[0,0], "w2":[0,0], "w3":[0,0]},
{"name":"Ottawa", "id": "6094817", "tz":"America/Toronto", "lat":"45.41117", "lon":"-75.69812", "now":[0,0], "w1":[0,0], "w2":[0,0], "w3":[0,0]},
{"name":"Calgary", "id": "5913490", "tz":"America/Edmonton", "lat":"51.05011", "lon":"-114.08529", "now":[0,0], "w1":[0,0], "w2":[0,0], "w3":[0,0]},
{"name":"Edmonton", "id": "5946768", "tz":"America/Edmonton", "lat":"53.55014", "lon":"-113.46871", "now":[0,0], "w1":[0,0], "w2":[0,0], "w3":[0,0]},
{"name":"Winnipeg", "id": "6183235", "tz":"America/Winnipeg", "lat":"49.8844", "lon":"-97.14704", "now":[0,0], "w1":[0,0], "w2":[0,0], "w3":[0,0]},
{"name":"Mexico City", "id": "3530597", "tz":"America/Mexico_City", "lat":"19.42847", "lon":"-99.12766", "now":[0,0], "w1":[0,0], "w2":[0,0], "w3":[0,0]},
{"name":"New York City", "id": "5128581", "tz":"America/New_York", "lat":"40.71427", "lon":"-74.00597", "now":[0,0], "w1":[0,0], "w2":[0,0], "w3":[0,0]},
{"name":"Los Angeles", "id": "5368361", "tz":"America/Los_Angeles", "lat":"34.05223", "lon":"-118.24368", "now":[0,0], "w1":[0,0], "w2":[0,0], "w3":[0,0]},
{"name":"Chicago", "id": "4887398", "tz":"America/Chicago", "lat":"41.85003", "lon":"-87.65005", "now":[0,0], "w1":[0,0], "w2":[0,0], "w3":[0,0]},
{"name":"Dallas", "id": "4684888", "tz":"America/Chicago", "lat":"32.78306", "lon":"-96.80667", "now":[0,0], "w1":[0,0], "w2":[0,0], "w3":[0,0]},
{"name":"Houston", "id": "4699066", "tz":"America/Chicago", "lat":"29.96328", "lon":"-95.36327", "now":[0,0], "w1":[0,0], "w2":[0,0], "w3":[0,0]},
{"name":"Kansas City", "id": "4393217", "tz":"America/Chicago", "lat":"39.09973", "lon":"-94.57857", "now":[0,0], "w1":[0,0], "w2":[0,0], "w3":[0,0]},
{"name":"Havana", "id": "3553478", "tz":"America/Havana", "lat":"23.13302", "lon":"-82.38304", "now":[0,0], "w1":[0,0], "w2":[0,0], "w3":[0,0]},
{"name":"Monterrey", "id": "3995465", "tz":"America/Monterrey", "lat":"25.67507", "lon":"-100.31847", "now":[0,0], "w1":[0,0], "w2":[0,0], "w3":[0,0]},
{"name":"Guadalajara", "id": "4005539", "tz":"America/Mexico_City", "lat":"20.66682", "lon":"-103.39182", "now":[0,0], "w1":[0,0], "w2":[0,0], "w3":[0,0]},
{"name":"Cancun", "id": "3531673", "tz":"America/Cancun", "lat":"21.17429", "lon":"-86.84656", "now":[0,0], "w1":[0,0], "w2":[0,0], "w3":[0,0]},
{"name":"Santo Domingo", "id": "3492908", "tz":"America/Santo_Domingo", "lat":"18.67186", "lon":"-69.89232", "now":[0,0], "w1":[0,0], "w2":[0,0], "w3":[0,0]},
{"name":"San Juan", "id": "4568127", "tz":"America/Puerto_Rico", "lat":"18.06633", "lon":"-66.10572", "now":[0,0], "w1":[0,0], "w2":[0,0], "w3":[0,0]},
{"name":"Washington", "id": "4140963", "tz":"America/New_York", "lat":"38.89511", "lon":"-77.03637", "now":[0,0], "w1":[0,0], "w2":[0,0], "w3":[0,0]},
{"name":"Philadelphia", "id": "4560349", "tz":"America/New_York", "lat":"39.95233", "lon":"-75.16379", "now":[0,0], "w1":[0,0], "w2":[0,0], "w3":[0,0]},
{"name":"Miami", "id": "4164138", "tz":"America/New_York", "lat":"25.77427", "lon":"-80.19366", "now":[0,0], "w1":[0,0], "w2":[0,0], "w3":[0,0]},
{"name":"Atlanta", "id": "4180439", "tz":"America/New_York", "lat":"33.749", "lon":"-84.38798", "now":[0,0], "w1":[0,0], "w2":[0,0], "w3":[0,0]},
{"name":"Boston", "id": "4930956", "tz":"America/New_York", "lat":"42.35843", "lon":"-71.05977", "now":[0,0], "w1":[0,0], "w2":[0,0], "w3":[0,0]},
{"name":"San Francisco", "id": "5391959", "tz":"America/Los_Angeles", "lat":"37.77493", "lon":"-122.41942", "now":[0,0], "w1":[0,0], "w2":[0,0], "w3":[0,0]},
{"name":"Phoenix", "id": "5308655", "tz":"America/Phoenix", "lat":"33.44838", "lon":"-112.07404", "now":[0,0], "w1":[0,0], "w2":[0,0], "w3":[0,0]},
{"name":"Detroit", "id": "4990729", "tz":"America/Detroit", "lat":"42.33143", "lon":"-83.04575", "now":[0,0], "w1":[0,0], "w2":[0,0], "w3":[0,0]},
{"name":"Seattle", "id": "5809844", "tz":"America/Los_Angeles", "lat":"47.60621", "lon":"-122.33207", "now":[0,0], "w1":[0,0], "w2":[0,0], "w3":[0,0]},
{"name":"Minneapolis", "id": "5037649", "tz":"America/Chicago", "lat":"44.97997", "lon":"-93.26384", "now":[0,0], "w1":[0,0], "w2":[0,0], "w3":[0,0]},
{"name":"Denver", "id": "5419384", "tz":"America/Denver", "lat":"39.73915", "lon":"-104.9847", "now":[0,0], "w1":[0,0], "w2":[0,0], "w3":[0,0]},
{"name":"St. Louis", "id": "4407066", "tz":"America/Chicago", "lat":"38.62727", "lon":"-90.19789", "now":[0,0], "w1":[0,0], "w2":[0,0], "w3":[0,0]},
{"name":"Charlotte", "id": "4460243", "tz":"America/New_York", "lat":"35.22709", "lon":"-80.84313", "now":[0,0], "w1":[0,0], "w2":[0,0], "w3":[0,0]},
{"name":"Portland", "id": "5746545", "tz":"America/Los_Angeles", "lat":"45.52345", "lon":"-122.67621", "now":[0,0], "w1":[0,0], "w2":[0,0], "w3":[0,0]},
{"name":"Orlando", "id": "4167147", "tz":"America/New_York", "lat":"28.53834", "lon":"-81.37924", "now":[0,0], "w1":[0,0], "w2":[0,0], "w3":[0,0]},
{"name":"San Antonio", "id": "4726206", "tz":"America/Chicago", "lat":"29.42412", "lon":"-98.49363", "now":[0,0], "w1":[0,0], "w2":[0,0], "w3":[0,0]},
{"name":"Salt Lake City", "id": "5780993", "tz":"America/Denver", "lat":"40.76078", "lon":"-111.89105", "now":[0,0], "w1":[0,0], "w2":[0,0], "w3":[0,0]},
{"name":"Pittsburgh", "id": "5206379", "tz":"America/New_York", "lat":"40.44062", "lon":"-79.99589", "now":[0,0], "w1":[0,0], "w2":[0,0], "w3":[0,0]},
{"name":"Cincinnati", "id": "4508722", "tz":"America/New_York", "lat":"39.12711", "lon":"-84.51439", "now":[0,0], "w1":[0,0], "w2":[0,0], "w3":[0,0]},
{"name":"Las Vegas", "id": "5506956", "tz":"America/Los_Angeles", "lat":"36.17497", "lon":"-115.13722", "now":[0,0], "w1":[0,0], "w2":[0,0], "w3":[0,0]},
{"name":"Cleveland", "id": "5150529", "tz":"America/New_York", "lat":"41.4995", "lon":"-81.69541", "now":[0,0], "w1":[0,0], "w2":[0,0], "w3":[0,0]},
{"name":"Columbus", "id": "4509177", "tz":"America/New_York", "lat":"39.96118", "lon":"-82.99879", "now":[0,0], "w1":[0,0], "w2":[0,0], "w3":[0,0]},
{"name":"Indianapolis", "id": "4259418", "tz":"America/Indiana/Indianapolis", "lat":"39.76838", "lon":"-86.15804", "now":[0,0], "w1":[0,0], "w2":[0,0], "w3":[0,0]},
{"name":"Nashville", "id": "4644585", "tz":"America/Chicago", "lat":"36.16589", "lon":"-86.78444", "now":[0,0], "w1":[0,0], "w2":[0,0], "w3":[0,0]},
{"name":"New Orleans", "id": "4335045", "tz":"America/Chicago", "lat":"29.95465", "lon":"-90.07507", "now":[0,0], "w1":[0,0], "w2":[0,0], "w3":[0,0]}
]